id,Adresse,Annee_construction,Superficie,GES,Electricite_GJ_moyenne_4_ans,Gaz_naturel_GJ_moyenne_4_ans,Mazout_GJ_moyenne_4_ans,Conso_totale_GJ,GES_m2,latitude,longitude,ID_source,indice_structurel,indice_thermique,indice_hydrique,indice_vegetation,indice_global,geometry,ADIDU,NOTESOC,CentSoc,QuintSoc,indice_social_norm,indice_renouvelable,indice_resilience
1273,2269 Rue Viau,1996.0,9200.01,1071.05,5465.12,21233.188,0.0,0.5975704607954793,1.0,45.5608159,-73.5399923,28812.0,0.1953417013430697,0.8278688524590163,0.4508196721311475,0.9478823146791621,0.7337995884001812,POINT (-73.5399923 45.5608159),24662058,0.0346179355216,80.0,4.0,0.5969649931935914,0.3952494757827002,0.34422722253091215
2,775 Rue Gosford,1913.0,25395.0,674.43,12221.0172,0.0,0.0,0.2735348951549094,0.22812202444548665,45.50973399999999,-73.5544025,26332.0,0.19411250434743912,0.7125,0.2,0.9322761138911373,0.5079283305197586,POINT (-73.5544025 45.50973399999999),24661257,0.0406368293806006,83.0,5.0,0.6259003733912865,1.0,0.5478398782303754
575,7355 Avenue Christophe-Colomb,1980.0,17021.02,528.3000000000001,5904.520533333333,10422.290666666666,0.0,0.3654321499364227,0.26660824896506485,45.5440099,-73.6146531,26944.0,0.1858014585920573,0.74,0.56,0.7541293825412758,0.6385275507116212,POINT (-73.6146531 45.5440099),24661500,0.0500440440960208,88.0,5.0,0.6711248516373993,0.5145923710303946,0.41651788977592374
868,12125 Rue Notre-Dame E,1914.0,14179.01,532.12424327,6317.69892,10482.372,0.0,0.37602480730468507,0.3223633725063867,45.6410294,-73.4903229,22297.0,0.30498574756169106,0.5875,0.5475,0.570627944607057,0.5506496424604723,POINT (-73.4903229 45.6410294),24660047,-0.0174178654095972,36.0,2.0,0.3468067881964742,0.5255469528142491,0.5929196068459754
105,1500 Rue Des Carrières,1929.0,12025.0,515.62,4332.7872,10285.232,0.0,0.3271853957659476,0.368318237166182,45.5378384,-73.5890297,28580.0,0.2097956727120445,0.9639639639639639,0.4774774774774775,0.7960609228493932,0.8071907459933768,POINT (-73.5890297 45.5378384),24661967,0.0596870882746297,93.0,5.0,0.7174830623165871,0.46497958764757263,0.3474044853202572
196,3440 Rue Jarry E,1968.0,8780.0,456.03,6882.8112,9071.094,0.0,0.35708564309960744,0.4461464603157504,45.5657492,-73.60748889999999,23522.0,0.2041897936249241,0.9726027397260273,0.4726027397260274,0.95520072681545,0.867887662602881,POINT (-73.60748889999999 45.5657492),24660362,0.0154413660932784,65.0,4.0,0.5047750758608218,0.5676480245403062,0.4489397254739069
2464,4880 Avenue Van Horne,1997.0,6302.0,447.78,4392.162,8926.846,0.0,0.2981104925412755,0.6103301817779483,45.4927706,-73.6384332,24370.0,0.11826136983492172,0.731418918918919,0.2567567567567568,0.6932321159412458,0.3908527736648595,POINT (-73.6384332 45.4927706),24660620,-0.0450732246532478,13.0,1.0,0.21385572559844718,0.4903512653751223,0.6703212217001311
25,200 Rue De Bellechasse,1929.0,16057.0,399.61,3772.656,7967.574,0.0,0.2627737552111883,0.21377183939653938,45.5305,-73.6031706,27478.0,0.19083512244786732,0.9691780821917808,0.37671232876712324,0.8886541901447723,0.7779434534044308,POINT (-73.6031706 45.5305),24661628,0.0449438508732564,86.0,5.0,0.646606055752386,0.48394702276057955,0.4079594152614282
1106,10351 Rue Sherbrooke E,,7042.0,386.04,5491.9331999999995,7681.662,0.0,0.2948558146080686,0.470884982461861,45.6206284,-73.5222908,32397.0,0.1602727214627217,0.3885291712104689,0.5544574700109052,0.7368005475058692,0.3338660903793187,POINT (-73.5222908 45.6206284),24662905,0.0541577984138143,90.0,5.0,0.6909014165700511,0.5566000222186258,0.46383551719165983
110,1600 Rue De Drucourt,1960.0,7527.0,371.09,5283.4752,7384.084,0.0,0.2835295475764986,0.42348291039983066,45.5410721,-73.5956175,28929.0,0.14916927850297898,0.6759259259259259,0.4629629629629629,0.6989978100270599,0.48444611159393525,POINT (-73.5956175 45.5410721),24662101,0.066782782160929,95.0,5.0,0.7515950777759561,0.5567502765756469,0.4077998459313572
2383,2060 Rue Dickson,1991.0,14442.01,589.77059202,3993.7833,11611.8545,0.0,0.3492906056501165,0.3507793555169845,45.5670896,-73.5321132,27735.0,0.20092407103976825,0.4629174852652259,0.42362475442043224,0.8182146747246242,0.3921492389068062,POINT (-73.5321132 45.5670896),24661720,0.0344114595050248,79.0,4.0,0.5959723752506161,0.43419751596052947,0.4862083448998775
2406,3444 Rue Saint-Joseph E,1975.0,6523.0,356.49,2111.5908,7118.312,0.0,0.20658677206411302,0.4694383083739917,45.433452,-73.69471519999999,29381.0,0.2126525941959536,0.5450680272108843,0.28996598639455784,0.5319755634599579,0.2865806351131005,POINT (-73.69471519999999 45.433452),24662218,0.088062812996712,99.0,5.0,0.8538972278514678,0.413558522377688,0.37706715637544136
248,5035 Rue De Rouen,1965.0,3847.0,337.86,1647.216,6749.37,0.0,0.1879351966847064,0.754385175204501,45.561483,-73.53853,28811.0,0.17671296496976055,0.6470588235294118,0.4522058823529411,0.7885920091201334,0.516097680191834,POINT (-73.53853 45.561483),24662058,0.0346179355216,80.0,4.0,0.5969649931935914,0.3887691248729904,0.4359393082040955
113,1350 Rue Des Carrières,1956.0,5959.0,335.67,2821.6908,6695.7519999999995,0.0,0.21302258853222525,0.48385774489903044,45.5363689,-73.5896822,28573.0,0.19877333466857594,0.9257425742574257,0.4678217821782178,0.7378284674077624,0.7401349550318684,POINT (-73.5896822 45.5363689),24661966,0.0258472831227561,73.0,4.0,0.5548007404774764,0.4650368447561758,0.44206214046097037
138,2140 Avenue Madison,1960.0,7691.01,357.23,3363.124266666667,7042.152666666666,0.0,0.2328943891034807,0.3989726280016096,45.4636297,-73.6203618,25152.0,0.20844015010849015,0.9886363636363635,0.5811688311688312,0.6813135758013498,0.8341610497737629,POINT (-73.6203618 45.4636297),24660871,0.0757223691152023,97.0,5.0,0.7945714706800175,0.4853682457155237,0.3112972652796854
2463,1825 Rue Notre-Dame O,1997.0,4841.0,277.545,2560.8216,5499.682,0.0,0.1804128879813515,0.4924667110437955,45.488291,-73.56911629999999,25968.0,0.2001063540931359,0.7566666666666666,0.3966666666666666,0.8402026818385229,0.6133748761880439,POINT (-73.56911629999999 45.488291),24661124,0.047014095401077,87.0,5.0,0.6565586008409006,0.4811758422323116,0.4207561307499016
175,2235 Rue Michel-Jurdant,2004.0,3456.0,248.96171775200003,2244.4349599999996,4910.849,0.0,0.16015195918406896,0.6187816010788716,45.5581197,-73.62113579999999,31286.0,0.18651305920008376,0.4150179856115108,0.45953237410071945,0.7471584848990498,0.3330906188237345,POINT (-73.62113579999999 45.5581197),24662628,0.0247295080796269,72.0,4.0,0.5494271209044925,0.4781153848049646,0.521965606484031
183,3131 Boulevard Rosemont,1949.0,4229.0,303.15,1434.1932,6056.2119999999995,0.0,0.16765275488277587,0.6157415226099993,45.5520021,-73.5828217,28904.0,0.23330390071649434,0.7361111111111112,0.1875,0.742699374534854,0.48177658694277237,POINT (-73.5828217 45.5520021),24662091,0.0565669729437995,91.0,5.0,0.7024833421897363,0.3851905349393192,0.40142702094551713
2390,2633 Rue Ontario E,1995.0,7472.01,278.130036038,4080.03875,5472.2575,0.0,0.21380269010932937,0.3197341329404389,45.5339074,-73.5521116,27952.0,0.1784386209613617,0.9336734693877551,0.45408163265306123,0.8510081683677655,0.7646222009141231,POINT (-73.5521116 45.5339074),24661786,0.0569787094259132,92.0,5.0,0.7044627344053684,0.5643842941945127,0.38948657501493544
3665,2580 Boulevard Saint-Joseph,1964.0,9348.01,270.59888758200003,13202.3989,5269.638,0.0,0.41344730917645034,0.24864824167945343,45.4342774,-73.6871268,29305.0,0.2669120929213395,0.875,0.08333333333333331,0.720927399640763,0.5574501192885232,POINT (-73.6871268 45.4342774),24662193,0.071173262837183,96.0,5.0,0.7727019838942735,0.7830744126148939,0.41996297977319996
152,5311 Chemin De La Côte-Saint-Antoine,1931.0,5174.0,249.2,1169.2224,4978.532,0.0,0.13760109553254968,0.41371395225797697,45.476117,-73.61368600000002,24451.0,0.17437488279060584,0.6907894736842105,0.1381578947368421,0.8360049843246736,0.40413236362981475,POINT (-73.61368600000002 45.476117),24660646,0.0666144144860661,95.0,5.0,0.7507856628237592,0.3842143260029395,0.4100642161783089
763,1515 Boulevard Du Tricentenaire,1972.0,9309.0,246.8,9169.8984,4863.772,0.0,0.3141063054475167,0.22773022693176626,45.651824,-73.499814,22266.0,0.11227216082230872,0.6032608695652174,0.875,0.6286658723471303,0.5802792911339337,POINT (-73.499814 45.651824),24660036,0.0759418461618887,97.0,5.0,0.7956265900988524,0.736459889749111,0.4059620902577075
431,1196 Voie Camillien-Houde,1931.0,4389.0,169.075,867.53016,0.0,2352.7617,0.07207764966514475,0.3308966490328968,45.5039341,-73.5875016,34777.0,0.16574361927968878,0.33425463623395146,0.08157988587731813,0.6847217427178194,0.03263415493857269,POINT (-73.5875016 45.5039341),24663362,0.0278948098075801,75.0,4.0,0.5646440712419347,0.0,0.5309280609889651
1051,6700 Rue Notre-Dame E,1961.0,4600.0,220.356000712,2364.03974,4341.8635,0.0,0.15009376958182888,0.41147703698126475,45.5753844,-73.51582979999999,34536.0,0.16799798362969,0.5653765690376569,0.48587866108786615,0.925083819633637,0.5152034586917352,POINT (-73.51582979999999 45.5753844),24663292,0.0426475367924517,84.0,5.0,0.6355666982661192,0.507661644577869,0.4632073953230416
3687,7700 Boulevard Langelier,1999.0,5635.01,207.845,4385.8982,4103.459,0.0,0.1900116327170029,0.31682791854605624,45.5922006,-73.577705,23028.0,0.18625049006285016,0.8363636363636364,0.41454545454545455,0.8030858324994407,0.6574103531095973,POINT (-73.577705 45.5922006),24660215,-0.0174783135875202,36.0,2.0,0.3465161881208732,0.6324469098012024,0.602113905443095
1078,8850 Avenue Dubuisson,2013.0,4398.0,210.02,2968.5584,4134.041,0.0,0.15897275573806757,0.4101889747110368,45.6022853,-73.5156107,34312.0,0.1922841500027051,0.5716783216783217,0.47377622377622375,0.6762219775307878,0.4394559427902963,POINT (-73.5156107 45.6022853),24663229,0.043304422467768,85.0,5.0,0.6387246268169398,0.5574093382037568,0.48367076898035155
976,2275 Boulevard Saint-Joseph E,1962.0,6970.01,201.68999999999997,3678.107786666667,3970.22,0.0,0.17118743104594003,0.2485590146770212,45.5398503,-73.5761313,28730.0,0.18599924637363632,0.7980769230769231,0.4807692307692307,0.7841600013090751,0.6543966924634975,POINT (-73.5761313 45.5398503),24662027,0.0507895735597927,89.0,5.0,0.6747089285439167,0.6052766047358957,0.44107670451650444
889,12515 Boulevard Rodolphe-Forget,1990.0,4781.0,282.57,5207.403066666667,5550.920000000001,0.0,0.24079638576102408,0.5076750985348156,45.6510062,-73.5792045,32338.0,0.2700526616199136,0.32760989010989006,0.2451923076923077,0.4711977182127908,0.12347370617804543,POINT (-73.5792045 45.6510062),24662902,0.040294456073766,83.0,5.0,0.624254439431513,0.6076576636664082,0.5481913272764076
2359,3535 36E Avenue,1972.0,3884.0,220.48,1944.6156,4397.17,0.0,0.14194396675842288,0.4876054294968636,45.66114,-73.5098983,32575.0,0.17936337604326105,0.17755102040816328,0.3581632653061224,0.5862553885926226,0.02825467835773221,POINT (-73.5098983 45.66114),24662933,-0.0249260542545529,29.0,2.0,0.31071173420245696,0.4727622619659734,0.7126913318029746
263,1055 Rue D' Hibernia,1960.0,5226.0,218.91,4384.8252,4345.376,0.0,0.19540228369233162,0.3598112594425538,45.4799512,-73.5632198,25996.0,0.1953919831594257,0.69921875,0.86328125,0.7558593471813866,0.7727876604393736,POINT (-73.5632198 45.4799512),24661127,0.0272351383030311,74.0,4.0,0.5614727500262984,0.6215156766056606,0.46629242865470877
609,5633 Rue Saint-Dominique,1981.0,3638.0,131.55999999999997,2249.6940133333333,2596.538666666667,0.0,0.10847000100941644,0.31062737308102056,45.52743359999999,-73.5993548,26610.0,0.1984656514603398,1.0,0.3571428571428571,0.8721016009173379,0.7921864910782682,POINT (-73.5993548 45.52743359999999),24661375,0.0654142002624235,95.0,5.0,0.745015723081784,0.5925865898934326,0.3765105256706865
3249,4555 Rue Hochelaga,1963.0,3688.0,197.951844394,4994.48657,3883.5385,0.0,0.19871092700083157,0.46104911644351126,45.5570639,-73.54571469999999,28803.0,0.2247420578040823,0.8433908045977012,0.38074712643678166,0.8812852202790988,0.7104312558192821,POINT (-73.54571469999999 45.5570639),24662054,0.00639855390828046,58.0,3.0,0.4613024354124469,0.6673741209847095,0.5278866460193008
337,400 Avenue Ball,2005.0,2077.0,187.603157678,1428.5283,3699.646,0.0,0.11478051266359408,0.7758579263362987,45.5320162,-73.6307254,34382.0,0.18668345012229157,0.9731543624161074,0.5385906040268457,0.7737029979531844,0.8163157650857277,POINT (-73.6307254 45.5320162),24663250,-0.0165642678726255,37.0,2.0,0.3509103942487984,0.45141720842041533,0.5121963481965257
608,850 Avenue Émile-Journault,1981.0,3917.0,202.07,4641.0372,4006.188,0.0,0.19354508710313334,0.44312558286465475,45.5512981,-73.6374421,31187.0,0.14991858923906498,0.6218836565096952,0.4245152354570637,0.5765449234762341,0.37606416837467804,POINT (-73.6374421 45.5512981),24662603,0.0495312915170387,88.0,5.0,0.6686598321225579,0.6477107884307873,0.48986356828081945
631,9235 Avenue Papineau,2015.0,11341.0,199.02,5570.9892,3937.37,0.0,0.21281927635837208,0.15073840837982508,45.5628895,-73.6388545,31288.0,0.16239072592079204,0.40888888888888886,0.7052777777777778,0.7034153451665239,0.4164414637882663,POINT (-73.6388545 45.5628895),24662629,0.012567013974549,63.0,4.0,0.490956843918899,0.6851197399075302,0.5967344199136619
3685,855 Boulevard Crémazie E,1991.0,8452.01,180.4625,9482.39628,3511.591,0.0,0.29083577006004263,0.1834026139313052,45.5497316,-73.6346894,31186.0,0.1424596530714077,0.7410714285714286,0.3247767857142857,0.717525336784396,0.46467573974287557,POINT (-73.6346894 45.5497316),24662603,0.0495312915170387,88.0,5.0,0.6686598321225579,0.7945026255984751,0.5063424510305661
1741,1870 Rue Davidson,1983.0,3896.0,198.046095406,2072.8058499999997,3900.7865,0.0,0.13370294226862056,0.4366423845998847,45.5423632,-73.5452935,27833.0,0.23561267478005596,0.8529411764705883,0.24264705882352944,0.8022311046307327,0.6257846149270058,POINT (-73.5452935 45.5423632),24661748,0.0370799961762234,81.0,5.0,0.6088011648856344,0.5034518294610795,0.4531843694758057
4485,9091 Boulevard Henri-Bourassa O,1972.0,23040.0,183.86,307.152,3677.754,0.0,0.08919149912596223,0.06854619228307873,45.5015535,-73.74909989999999,35255.0,0.20456110593915292,0.33936301793444645,0.34894867037724175,0.5760054556731836,0.16753126393912043,POINT (-73.74909989999999 45.5015535),24663423,-0.00260650094059088,50.0,3.0,0.41801131052185886,0.2982064335503213,0.6403887301281166
44,999 Rue De Louvain E,1966.0,4063.0,180.22,933.3036,3599.702,0.0,0.10145924772388155,0.3810085459139691,45.5565664,-73.6479708,31229.0,0.1743254182970098,0.5345982142857143,0.5100446428571429,0.579696302059713,0.3758973580622086,POINT (-73.6479708 45.5565664),24662615,0.0327018658454136,78.0,4.0,0.5877536321255075,0.3961555470459097,0.5041819598588522
107,1610 Rue Des Carrières,1960.0,3250.0,176.87,1486.2132,3527.996,0.0,0.1122297076716971,0.4674652892596406,45.53835309999999,-73.5884846,28580.0,0.2097956727120445,0.9639639639639639,0.4774774774774775,0.7960609228493932,0.8071907459933768,POINT (-73.5884846 45.53835309999999),24661967,0.0596870882746297,93.0,5.0,0.7174830623165871,0.4649795010544019,0.35609012003134105
4490,6445 Avenue De Monkland,2011.0,5147.0,209.2266666666667,4631.91148,4105.921333333334,0.0,0.19557309701489176,0.3491736169990993,45.4664292,-73.63228769999999,24687.0,0.1934392661101658,0.9734513274336283,0.32300884955752207,0.6159758109762594,0.6503631228438139,POINT (-73.63228769999999 45.4664292),24660753,0.06418052885949,94.0,5.0,0.73908494046306,0.6426846439869482,0.40593159824670016
626,7959 16E Avenue,1961.0,2590.0,171.24,1010.232,3419.43,0.0,0.0991461766980973,0.5679158752849429,45.5666228,-73.6044082,23545.0,0.19471958508303575,0.9090909090909092,0.46590909090909094,0.9710215994664393,0.8128458701608489,POINT (-73.6044082 45.5666228),24660364,0.0443542259669789,85.0,5.0,0.6437714782973183,0.4130137666653785,0.3774674979202498
2621,7000 Boulevard Maurice-Duplessis,2010.0,15587.02,162.10500000000002,5669.4429,3184.16,0.0,0.19816430182216763,0.08933299031615421,45.6188838,-73.60923249999999,31734.0,0.19256459717837549,0.661036036036036,0.5123873873873874,0.6270749377796225,0.5097765255733421,POINT (-73.60923249999999 45.6188838),24662763,0.0146317570362771,65.0,4.0,0.5008829411223437,0.726523740895459,0.5850194885481045
482,11301 Boulevard De L' Acadie,1971.0,3977.0,169.31,3211.7364,3362.392,0.0,0.14714434103152332,0.3656836748045577,45.5379371,-73.6884515,30967.0,0.18194798653409236,0.5340557275541795,0.6037151702786377,0.592463847460553,0.4356365444165824,POINT (-73.6884515 45.5379371),24662545,0.00440614678655387,56.0,3.0,0.45172408780800416,0.6110847713951055,0.5902112617342412
3238,4398 Boulevard Lasalle,1967.0,5403.01,142.6293215,2301.83,2806.3545000000004,0.0,0.11433309427299009,0.22675224666723687,45.4599988,-73.5627616,26211.0,0.2635298460579389,0.8121301775147929,0.42603550295857984,0.5266338356412179,0.6073781365738607,POINT (-73.5627616 45.4599988),24661222,0.0128109631057674,63.0,4.0,0.49212961104622527,0.5822458788973084,0.5442150484261944
3031,7650 Boulevard Châteauneuf (Anj),1976.0,5844.0,158.68,6778.08,3119.8379999999997,0.0,0.22153851173549535,0.23323328994451406,45.6029496,-73.5585906,22905.0,0.22140958216285794,0.46706586826347307,0.41017964071856283,0.591608137206115,0.3192230456717914,POINT (-73.5585906 45.6029496),24660180,-0.0211131369949519,33.0,2.0,0.3290420475712372,0.7603193469415725,0.7015743839952583
315,10560 Rue Saint-Hubert,1970.0,3796.0,159.530786766,3289.98564,3131.004,0.0,0.14371673807710209,0.360991401186743,45.5570954,-73.6641283,30913.0,0.2269593380964375,0.5876068376068376,0.4337606837606838,0.611737291334137,0.43749268850697054,POINT (-73.6641283 45.5570954),24662529,0.0692119920763784,96.0,5.0,0.763273322006568,0.6292113424220147,0.4373933922138358
104,2111 Rue Saint-Zotique E,1931.0,3292.0,129.85666666666663,2101.758453333334,2557.096666666667,0.0,0.10427605377980426,0.3388308754998654,45.547542,-73.59803699999999,27513.0,0.2025173300319128,0.7962962962962963,0.28240740740740744,0.8035373495523797,0.5730774794745913,POINT (-73.59803699999999 45.547542),24661637,0.0523060313311308,89.0,5.0,0.6819991853909952,0.5826381695877223,0.4485476171517672
276,6750 Rue De Marseille,1970.0,3375.0,140.09,3757.2804,2772.86,0.0,0.14615978690062217,0.3565429980341199,45.5827415,-73.5379327,34611.0,0.2065846815288617,0.6879562043795621,0.3266423357664233,0.5962354786434823,0.4354924856459491,POINT (-73.5379327 45.5827415),24663319,0.0761394735043812,97.0,5.0,0.7965766687057263,0.6771132591104239,0.428477448514405
293,7047 Rue Saint-Dominique,1931.0,2762.0,127.61,293.5646,2532.764,0.0,0.06325983219091795,0.3968620654219376,45.53466419999999,-73.6157526,26991.0,0.22944181920274406,0.826086956521739,0.7608695652173914,0.9370748486719076,0.9190187284731445,POINT (-73.6157526 45.53466419999999),24661518,0.0611701882130931,93.0,5.0,0.7246129538873516,0.3185768892433424,0.31716716842723247
480,8780 Avenue Dubuisson,1971.0,3557.0,169.40333333333334,3323.1562800000006,3327.2533333333336,0.0,0.1488516926660029,0.409087905836559,45.6016974,-73.51642369999999,34312.0,0.1922841500027051,0.5716783216783217,0.47377622377622375,0.6762219775307878,0.4394559427902963,POINT (-73.51642369999999 45.6016974),24663229,0.043304422467768,85.0,5.0,0.6387246268169398,0.6195634269617183,0.49383554219003645
3114,820 Rue Saint-Germain,1961.0,3591.0,103.9075,1666.70667,2045.916,0.0,0.08309716254946355,0.24854786938948417,45.5126017,-73.67800210000001,24241.0,0.2677038280121123,0.7430555555555556,0.2847222222222222,0.707014963042001,0.5545725683656627,POINT (-73.67800210000001 45.5126017),24660602,0.0188301984061301,68.0,4.0,0.5210666326976259,0.5809635769799488,0.5408233291296258
191,5375 1Re Avenue,1965.0,3760.0,125.74,1190.5488,2507.0119999999997,0.0,0.08276004273661468,0.2872527300710079,45.5454217,-73.57624009999999,28717.0,0.14212374134433822,0.9267241379310345,0.6120689655172413,0.7046056050223903,0.7513145622965124,POINT (-73.57624009999999 45.5454217),24662025,0.114472026167475,100.0,5.0,0.9808575367918357,0.4844320923589578,0.25422217503805167
2022,1501 Rue Bercy,2001.0,2888.0,143.56333333333333,2208.0733333333333,2824.154666666667,0.0,0.11263301048096057,0.42699707341192206,45.5336123,-73.5472628,34643.0,0.13645935808305418,0.986413043478261,0.44225543478260865,0.6702999303776279,0.6914978982966201,POINT (-73.5472628 45.5336123),24663330,0.0611490310927661,93.0,5.0,0.7245112426203164,0.5732505648669617,0.3949601274685958
1,275 Rue Notre-Dame E,1878.0,67288.07,628.3866666666667,22376.145879999996,1096.8713333333333,0.0,0.5253809234814362,0.08021718980118066,45.5087907,-73.5542564,26349.0,0.22283527160213484,0.6416666666666667,0.27708333333333335,0.9274831676840286,0.5169602491530242,POINT (-73.5542564 45.5087907),24661257,0.0406368293806006,83.0,5.0,0.6259003733912865,0.9644670261330723,0.5329079588975165
212,4040 Avenue Du Parc,1930.0,2886.0,121.23,2275.0128,2407.718,0.0,0.10481044723647594,0.36082143739297934,45.512471,-73.58374239999999,34777.0,0.16574361927968878,0.33425463623395146,0.08157988587731813,0.6847217427178194,0.03263415493857269,POINT (-73.58374239999999 45.512471),24663362,0.0278948098075801,75.0,4.0,0.5646440712419347,0.6090229953748802,0.617582191350341
481,3175 Rue De Rouen,1971.0,3405.0,120.65,3735.7092,2383.968,0.0,0.13697266224974217,0.3043608328687296,45.5417375,-73.5514602,27928.0,0.1686969840859511,0.7682291666666667,0.33854166666666663,0.786337576198874,0.543122283136613,POINT (-73.5514602 45.5417375),24661782,0.0553068782648226,91.0,5.0,0.6964255316558681,0.7037784198421326,0.46562952838717786
101,1875 Avenue Morgan,1916.0,2457.0,116.44,1102.0392,2321.686,0.0,0.07663096273370937,0.4070760897340415,45.5535522,-73.5381883,28825.0,0.19505338780338863,0.8782051282051282,0.3782051282051282,0.8373115107608836,0.6922389147914848,POINT (-73.5381883 45.5535522),24662065,0.0531065953425736,90.0,5.0,0.6858478367522498,0.4843567102642381,0.40500377627013256
601,1696 Rue Montcalm,1981.0,4162.0,89.85333333333334,4508.258959999999,1750.8086666666668,0.0,0.1400925454083932,0.18544309671461073,45.51964940000001,-73.5596812,28173.0,0.19296383457735852,0.7285714285714285,0.4714285714285714,0.9301110117848841,0.6585517834972784,POINT (-73.5596812 45.51964940000001),24661861,-0.0161924239512572,37.0,2.0,0.352698005974648,0.7872968942863403,0.6356200012969461
77,5 Avenue Laurier O,1905.0,2192.0,94.533060846,374.06582,1867.004,0.0,0.050160374395719826,0.37044328264822984,45.5228954,-73.5932341,26758.0,0.21217781429544005,0.7428571428571429,0.7214285714285714,0.7517645840091342,0.7469403545501109,POINT (-73.5932341 45.5228954),24661429,0.0541426595355812,90.0,5.0,0.6908286375499018,0.36651746102434957,0.3786299551903831
435,2150 Rue Dickson,1958.0,2208.0,107.31,900.5364,2140.578,0.0,0.06806723981683663,0.4174646244390404,45.5661182,-73.5334615,27735.0,0.20092407103976825,0.4629174852652259,0.42362475442043224,0.8182146747246242,0.3921492389068062,POINT (-73.5334615 45.5661182),24661720,0.0344114595050248,79.0,4.0,0.5959723752506161,0.4647667471788346,0.5068840868509651
285,1210 Rue Sherbrooke E,1917.0,7412.01,105.163913508,2743.8466500000004,2061.6409999999996,0.0,0.1075580321178962,0.12187350367135127,45.5225079,-73.56495989999999,28127.0,0.2109263516512668,0.8833333333333333,0.27222222222222225,0.8320910281871684,0.6538333729521143,POINT (-73.56495989999999 45.5225079),24661851,0.0621269807123575,94.0,5.0,0.7292126619707762,0.6737726529325463,0.43848552717987743
978,10300 Rue Lajeunesse,1948.0,6348.01,87.23394271999999,2152.2542999999996,1712.415,0.0,0.08650032108488458,0.11803925325885684,45.5534066,-73.6626698,30911.0,0.23534017972833565,0.9298245614035088,0.24122807017543857,0.6518429799772629,0.6261138941889545,POINT (-73.6626698 45.5534066),24662529,0.0692119920763784,96.0,5.0,0.763273322006568,0.663068610080485,0.42726038359521723
4201,2349 Rue De Rouen,1906.0,3025.0,105.23,424.4904,2102.92,0.0,0.05656934504416111,0.2988083609310549,45.5325826,-73.5583271,27968.0,0.20510831563466547,0.7944444444444445,0.09999999999999998,0.768190660475697,0.4661808768246153,POINT (-73.5583271 45.5325826),24661793,0.00448879378828299,56.0,3.0,0.4521214070618826,0.3673088341086045,0.5591461182722851
747,75 Rue Du Square-Sir-George-Étienne-Cartier (,1958.0,5591.0,104.44,742.6224,2084.49,0.0,0.06327737546471535,0.16045598642492712,45.4732115,-73.5838668,25772.0,0.2022703292055834,0.53,0.97,0.7354643377148007,0.6951963840871503,POINT (-73.5838668 45.4732115),24661054,0.0254764705803975,73.0,4.0,0.5530180870287575,0.4393374758612011,0.4835722989056481
317,6040 Boulevard Monk,1960.0,3226.0,91.86674507,1509.49096,1807.313,0.0,0.07423781577265012,0.2446090494516638,45.45787379999999,-73.59548769999999,25684.0,0.20972849495185947,0.7195121951219512,0.6341463414634146,0.8885453936363281,0.7345559940678467,POINT (-73.59548769999999 45.45787379999999),24661038,0.0312866659175555,77.0,4.0,0.5809501647563182,0.5856585738070952,0.4765489899875123
12,155 Rue Notre-Dame E,1857.0,14218.0,102.14,6699.312,0.0,0.0,0.14994624224324193,0.0617072080974771,45.5078918,-73.5549053,26349.0,0.22283527160213484,0.6416666666666667,0.27708333333333335,0.9274831676840286,0.5169602491530242,POINT (-73.5549053 45.5078918),24661257,0.0406368293806006,83.0,5.0,0.6259003733912865,1.0,0.567783754698198
755,5319 Avenue Notre-Dame-De-Grâce,1955.0,2819.0,91.11333333333334,308.45884,1801.526,0.0,0.047226386522706824,0.2776293736876775,45.4774793,-73.6165115,24450.0,0.17865318259769564,0.6391509433962265,0.3702830188679245,0.7210369884868055,0.4433119594350612,POINT (-73.6165115 45.4774793),24660646,0.0666144144860661,95.0,5.0,0.7507856628237592,0.3507589271389123,0.41419443375616616
280,523 Place Saint-Henri,1930.0,3210.0,88.35247925,1236.10263,1739.0615,0.0,0.06659111881195923,0.23642438182253442,45.4779078,-73.5851801,25781.0,0.15731052693931719,0.6875,0.4625,0.7265798200953723,0.5111917261869893,POINT (-73.5851801 45.4779078),24661055,0.0434043390006104,85.0,5.0,0.6392049680446732,0.5555235057148626,0.48876153404990785
2552,6960 Avenue De Darlington,1997.0,2228.0,93.93,1297.4616,1869.448,0.0,0.07088283006434817,0.362132655818461,45.5104228,-73.6324779,26467.0,0.1880185519427265,0.9524793388429753,0.428374655647383,0.6959968551217519,0.7145737229061316,POINT (-73.6324779 45.5104228),24661313,0.0719209656170374,97.0,5.0,0.7762965088546376,0.5511280054662913,0.3691300403701879
455,8000 Rue De Normanville,1958.0,3415.0,90.86,1645.4196,1805.076,0.0,0.07723014678176512,0.2285391344941878,45.5478878,-73.62148680000001,32851.0,0.1737937576109288,0.850609756097561,0.19664634146341464,0.626515618663736,0.476417200480417,POINT (-73.62148680000001 45.5478878),24662981,0.0197557843433119,68.0,4.0,0.5255163175775053,0.602205475093186,0.5593565262834453
3070,1300 Avenue Dollard (Lsl),1976.0,3931.0,89.02,3322.8612,1754.232,0.0,0.11363719839570337,0.1945194800305737,45.4259613,-73.62636189999999,25264.0,0.22319531840268317,0.6929347826086957,0.6394927536231884,0.7369820850069673,0.6702484411002397,POINT (-73.62636189999999 45.4259613),24660908,0.0172091671388499,66.0,4.0,0.5132736466224581,0.7372657563605236,0.5467916010408308
762,14201 Rue Sherbrooke E,1972.0,2118.0,77.580800256,996.84436,1527.892,0.0,0.05650949378635909,0.31463487052440714,45.67221139999999,-73.5051343,32590.0,0.19493947658134037,0.2356521739130435,0.34673913043478266,0.516773792970032,0.05450633666214266,POINT (-73.5051343 45.67221139999999),24662935,0.0360907184137088,80.0,4.0,0.6040452863388348,0.5398267072753722,0.5902142682661524
64,8650 Avenue Querbes,1979.0,3772.0,129.0533333333333,2828.298546666667,2529.8446666666664,0.0,0.1199277538112067,0.2938841041756276,45.5342078,-73.6444972,27406.0,0.14897576455163689,0.9966216216216217,0.3581081081081081,0.6923735242233333,0.6758238874997072,POINT (-73.6444972 45.5342078),24661614,-0.0209611711819395,33.0,2.0,0.32977261180439615,0.6409753014655446,0.6150593224686796
795,5350 Rue Lafond,1965.0,4528.0,77.531188966,1994.83289,1520.8829999999998,0.0,0.07868992913008901,0.14707829265143693,45.5522265,-73.5712652,28685.0,0.15774352481585735,0.9166666666666667,0.40909090909090906,0.6878417335008749,0.6464089388503532,POINT (-73.5712652 45.5522265),24662012,0.0559849066042391,91.0,5.0,0.6996851019764994,0.6710523251171969,0.45460089337564474
3679,1441 Rue Saint-Urbain,1957.0,14329.01,87.37562003400001,16267.47658,1629.3505,0.0,0.4005727705655584,0.05237844954164241,45.5093363,-73.5655294,28966.0,0.22498872638114564,0.6805555555555556,0.29166666666666663,0.9565558769383575,0.5677816887054735,POINT (-73.5655294 45.5093363),24662114,0.0587416741437209,92.0,5.0,0.7129380548844968,0.9307717642999058,0.4856190579536027
190,8100 Boulevard Saint-Michel,1968.0,2818.0,73.235,690.66616,1443.6709999999998,0.0,0.04777144829530451,0.22323189757707734,45.56379949999999,-73.6100436,23496.0,0.2271560374253211,0.939516129032258,0.4959677419354839,0.9006477907258972,0.8539612985273962,POINT (-73.6100436 45.56379949999999),24660357,0.0505049246054429,89.0,5.0,0.673340500073514,0.48566036278564595,0.39506129373518206
159,5115 Rue Rivard,1967.0,2269.0,75.09,397.79916,1483.544,0.0,0.04210885195554801,0.28426681416268706,45.52792160000001,-73.5892149,26790.0,0.2039507171783677,0.9875,0.42500000000000004,0.8467791829877919,0.8126793103231676,POINT (-73.5892149 45.52792160000001),24661437,0.0495762573596632,88.0,5.0,0.6688760020339617,0.4003784951124041,0.38860473622637853
84,4375 Rue Ontario E,1914.0,3439.0,74.78000000000002,663.4816533333333,1474.8546666666668,0.0,0.04786095883222674,0.18678063126358116,45.5538033,-73.540376,28823.0,0.14603540873867948,0.7571428571428571,0.42619047619047623,0.7807977426666445,0.5571611492066912,POINT (-73.540376 45.5538033),24662065,0.0531065953425736,90.0,5.0,0.6858478367522498,0.4755332000433793,0.4493757125318581
869,5550 Rue Angers,1959.0,2766.0,59.805169956,819.11344,1177.368,0.0,0.04468591545465811,0.18572275057689808,45.46294109999999,-73.58408419999999,26124.0,0.20951373242869586,0.48958333333333337,0.7326388888888888,0.7118927856797211,0.5388519031679508,POINT (-73.58408419999999 45.46294109999999),24661187,0.032062503380703,78.0,4.0,0.5846799450936502,0.5515730162974499,0.5153449493118355
2459,9001 Boulevard Perras,1995.0,2286.0,53.33,1243.3418,1050.489,0.0,0.05134128829972532,0.20038901543987295,45.6497644,-73.5789715,32338.0,0.2700526616199136,0.32760989010989006,0.2451923076923077,0.4711977182127908,0.12347370617804543,POINT (-73.5789715 45.6497644),24662902,0.040294456073766,83.0,5.0,0.624254439431513,0.6517629969149772,0.5920627158054111
3015,530 Boulevard Bouchard (Dvl),1965.0,3361.0,50.71,1873.152,999.552,0.0,0.06429782190725408,0.12959959726085268,45.4471724,-73.7352506,29504.0,0.19314401273152393,0.6134663341645885,0.559850374064838,0.5025070773685629,0.4497630640216601,POINT (-73.7352506 45.4471724),24662242,0.0326954952302362,78.0,4.0,0.5877230058714866,0.7354186057338519,0.5619563686823944
3330,3175 Chemin Remembrance,1961.0,2567.0,50.21,2459.2212,984.58,0.0,0.07708031048154905,0.16801300774371233,45.4984997,-73.60159209999999,34764.0,0.3076124018588239,0.4194915254237288,0.11440677966101692,0.3724528754034233,0.12280694111945611,POINT (-73.60159209999999 45.4984997),24663362,0.0278948098075801,75.0,4.0,0.5646440712419347,0.7826009089603503,0.6421247136322993
297,4985 Avenue West Hill,1970.0,3728.0,41.81758033,4167.799069999999,802.2235,0.0,0.11124070773769004,0.09635218107832294,45.4713724,-73.63858479999999,24420.0,0.16160520358759678,0.9407894736842106,0.5328947368421053,0.6275915545842934,0.7091339460095515,POINT (-73.63858479999999 45.4713724),24660635,0.0514133059782995,89.0,5.0,0.6777074753024934,0.8772612188401634,0.48533918931166653
610,4988 Rue Vézina,1982.0,3620.0,62.916666666666664,3902.5720266666663,1217.7246666666667,0.0,0.1146041934359574,0.14929170876103595,45.4947688,-73.644429,24362.0,0.19888176829127746,0.8496621621621621,0.4070945945945946,0.6620125652634825,0.6206689293923834,POINT (-73.644429 45.4947688),24660616,0.0116234690820684,62.0,4.0,0.48642082271016934,0.8191582237789485,0.5857373436685065
2558,85 Rue Notre-Dame E,1905.0,5763.0,37.9,2467.7784,0.0,0.0,0.05523464167201648,0.056489683859735185,45.5079208,-73.55493469999999,26349.0,0.22283527160213484,0.6416666666666667,0.27708333333333335,0.9274831676840286,0.5169602491530242,POINT (-73.55493469999999 45.5079208),24661257,0.0406368293806006,83.0,5.0,0.6259003733912865,1.0,0.5752784390588705
2453,3680 Rue Jeanne-Mance,1910.0,4847.0,38.947266344,2983.37106,751.528,0.0,0.08359576016235946,0.06902120143415477,45.5114961,-73.5762511,28498.0,0.19924432105524129,0.7638888888888888,0.5208333333333334,0.8731934969695955,0.6950250808936577,POINT (-73.5762511 45.5114961),24661944,0.0275126708790171,74.0,4.0,0.5628069670421696,0.8469930760138513,0.5451941895825229
528,9175 Boulevard Perras,1978.0,3922.0,110.25666666666666,5345.36792,2138.2226666666666,0.0,0.16750022792751929,0.241477028539885,45.6516417,-73.5778325,32338.0,0.2700526616199136,0.32760989010989006,0.2451923076923077,0.4711977182127908,0.12347370617804543,POINT (-73.5778325 45.6516417),24662902,0.040294456073766,83.0,5.0,0.624254439431513,0.7827360373114536,0.5999151504102971
407,4040 Rue Sherbrooke E,1918.0,2484.0,31.270130156,969.28122,612.5740000000001,0.0,0.035405612697521294,0.10813260142875313,45.55384,-73.55400999999999,28780.0,0.2024478116922091,0.8545454545454545,0.2863636363636364,0.7976169833494866,0.6178504296772739,POINT (-73.55400999999999 45.55384),24662043,0.0254554162704111,73.0,4.0,0.5529168700147136,0.7055330113301328,0.5450360646972378
2547,1033 Rue Rachel E,1990.0,2313.0,27.19391588,2650.58166,521.9365,0.0,0.07100836273044817,0.10098913930687559,45.52553899999999,-73.575074,28095.0,0.21991002257002826,0.8200000000000001,0.72,0.8377602001740855,0.8461756988120271,POINT (-73.575074 45.52553899999999),24661840,-0.0329796887829428,22.0,2.0,0.27199449104925394,0.8748997033415102,0.6631027575613949
240,500 Boulevard Rosemont,2013.0,3619.0,30.62,2361.1572,593.332,0.0,0.066128365612505,0.07267669294730404,45.5319459,-73.5972311,26823.0,0.1832524556244844,0.75,0.46484375,0.7919869414852598,0.6095156338131814,POINT (-73.5972311 45.5319459),24661444,0.0596782353179037,93.0,5.0,0.7174405023919992,0.8472925756228422,0.4860601289928048
353,2450 Rue Workman,1904.0,2045.0,21.4,1108.59896,416.68,0.0,0.03413930392026527,0.08988744062021709,45.4835632,-73.57516079999999,25938.0,0.1694378411760155,0.7340425531914894,0.5585106382978723,0.8286427210703887,0.6472084166598074,POINT (-73.57516079999999 45.4835632),24661118,0.0271087607655464,74.0,4.0,0.5608651995060148,0.7922705059676456,0.5496642869696418
177,3616 Rue Hochelaga,1931.0,2923.0,32.63333333333333,1882.2185333333337,632.0966666666667,0.0,0.05627624389714427,0.09589835898705816,45.5472335,-73.5508373,27898.0,0.24826229521730173,0.9655172413793103,0.3836206896551724,0.8475423118448765,0.8146216448031159,POINT (-73.5508373 45.5472335),24661771,0.0164556049598986,66.0,4.0,0.5096509530409867,0.808834918367429,0.5421623370576826
95,1000 Avenue Émile-Journault E,1976.0,53494.05,137.87732842999998,42216.44196,2461.6499999999996,0.0,1.0,0.02213940445660426,45.5530542,-73.63708729999999,31187.0,0.14991858923906498,0.6218836565096952,0.4245152354570637,0.5765449234762341,0.37606416837467804,POINT (-73.63708729999999 45.5530542),24662603,0.0495312915170387,88.0,5.0,0.6686598321225579,0.9581036224842103,0.5075123383021717
9322,505 Boulevard De Maisonneuve E,1954.0,7062.0,18.44,0.0,369.208,0.0,0.008263736963757306,0.02242909535767414,45.5157804,-73.5610021,28151.0,0.21508891047652978,0.9935064935064934,0.7337662337662337,0.8811145904114037,1.0,POINT (-73.5610021 45.5157804),24661858,0.0330828700002178,78.0,4.0,0.5895852809856506,0.23959530906452053,0.3888446934427454
151,3755 Rue Botrel,1912.0,3224.0,15.086666666666666,2806.6192800000003,279.7386666666667,0.0,0.06907989601323761,0.04019544264614455,45.47547830000001,-73.6144139,24452.0,0.24042680867072005,0.6891891891891891,0.1216216216216216,0.8429385132728711,0.45668994766751225,POINT (-73.6144139 45.47547830000001),24660646,0.0666144144860661,95.0,5.0,0.7507856628237592,0.9310790912638289,0.5147353923447386
321,7650 Boulevard Maurice-Duplessis,2004.0,2070.0,37.15,2611.9626,717.7379999999999,0.0,0.07452647268332449,0.15415834048803492,45.6270842,-73.5948313,31973.0,0.15672327040403944,0.29022988505747127,0.21839080459770116,0.5270793993253842,0.0,POINT (-73.5948313 45.6270842),24662838,-0.0895576898554416,1.0,1.0,0.0,0.8360899649468039,0.9582621337541686
1043,12090 Rue Notre-Dame E,1990.0,4250.0,7.592337220000001,2271.8862200000003,139.0185,0.0,0.05396167594082728,0.015344937122696264,45.640538,-73.48909739999999,22298.0,0.18967085779363513,0.5382882882882883,0.2657657657657657,0.5882979730109209,0.2698898276588283,POINT (-73.48909739999999 45.640538),24660047,-0.0174178654095972,36.0,2.0,0.3468067881964742,0.9561532570533049,0.7608436329482287
142,6767 Chemin De La Côte-Des-Neiges,1976.0,8066.0,2.31,5552.3844,0.0,0.0,0.12427532502889813,0.002459984190694485,45.50333450000001,-73.6369824,26480.0,0.2276068240715423,0.8518518518518519,0.3287037037037037,0.6786087003130394,0.614275387132487,POINT (-73.6369824 45.50333450000001),24661321,-0.00204438841225613,50.0,3.0,0.4207136242861946,1.0,0.6572829622389358
3686,2805 Boulevard Thimens (Slr),1986.0,4195.0,1.81,4348.9583999999995,0.0,0.0,0.09733984172586406,0.0037061685259894036,45.50328409999999,-73.7067148,35147.0,0.1924200062566193,0.46737967914438505,0.5882352941176471,0.6466746892190303,0.40647707676475797,POINT (-73.7067148 45.50328409999999),24663419,0.0166732301925021,66.0,4.0,0.5106971700026925,1.0,0.6557775488768132
3956,1248 Avenue Bernard (Out),1929.0,3016.0,1.71,4113.4068,0.0,0.0,0.09206764701775326,0.0048701610952929875,45.5198962,-73.6085499,26648.0,0.2631652401427146,0.6666666666666666,0.3446969696969697,0.588558661149663,0.4764524801054083,POINT (-73.6085499 45.5198962),24661395,-0.0129451558602706,40.0,2.0,0.368309003446556,1.0,0.713284666647162
1033,6400 Avenue De Monkland,2015.0,5881.0,1.66,3995.442,0.0,0.0,0.08942731940247343,0.002424574105057439,45.466196,-73.63091639999999,24697.0,0.18525528423748652,0.8807339449541285,0.5,0.7253695053316137,0.7048733110103363,POINT (-73.63091639999999 45.466196),24660755,0.0652530576109432,95.0,5.0,0.7442410418868872,1.0,0.4800159248414243
811,8105 Rue Hochelaga,1987.0,4970.0,0.8066666666666666,2435.2119333333335,0.0,0.0,0.054505728120922504,0.0013941717434988881,45.59552679999999,-73.523868,22565.0,0.1631486258719526,0.7607142857142857,0.2857142857142857,0.7997806177481288,0.5102386530698871,POINT (-73.523868 45.59552679999999),24660101,-0.0049143826072394,48.0,3.0,0.4069163427353936,1.0,0.6903016055284941
709,5290 Chemin De La Côte-Des-Neiges,1982.0,3477.0,1.09,2616.75,0.0,0.0,0.058568973857316,0.002692776826010884,45.4960824,-73.6221267,24524.0,0.16202246794637912,0.8762886597938144,0.28350515463917525,0.8107328788984808,0.601776228810004,POINT (-73.6221267 45.4960824),24660691,0.0259053466240853,73.0,4.0,0.5550798763994462,1.0,0.5975101847370266
98,4200 Rue Ontario E,1907.0,2124.0,0.607697464,2006.1071,0.0,0.0,0.044901360196761636,0.0024576015113797227,45.5512339,-73.54044569999999,27883.0,0.21783082763421796,0.743421052631579,0.4013157894736842,0.87824983271154,0.6362514945215892,POINT (-73.54044569999999 45.5512339),24661766,0.0131482610903207,63.0,4.0,0.49375114577529705,1.0,0.622322206079923
1303,251 Avenue Des Pins O,1858.0,10153.0,0.94,2247.9336,0.0,0.0,0.05031400181575704,0.0007952652781795701,45.5126444,-73.57882649999999,28493.0,0.1970221866184912,0.9403669724770642,0.16857798165137616,0.8232468814488959,0.6285184713786932,POINT (-73.57882649999999 45.5126444),24661942,0.0128431828070273,63.0,4.0,0.49228450484027636,1.0,0.6243208582720778
194,7601 Rue François-Perrault,1968.0,2437.0,0.64,1976.2739333333332,0.0,0.0,0.04423362428061338,0.0022558124989689836,45.5621786,-73.60203140000002,23152.0,0.1591639344126638,0.9685185185185186,0.662962962962963,0.7148011543557061,0.829258809234081,POINT (-73.60203140000002 45.5621786),24660253,0.0346520785698807,80.0,4.0,0.5971291333339983,1.0,0.532096963727716
2369,5434 Avenue Du Parc,1992.0,2299.0,0.54,1303.776,0.0,0.0,0.029181550572196818,0.0020175919777568603,45.5216252,-73.6017564,26628.0,0.23976522151472354,1.0,0.6236842105263158,0.8943411378203185,0.9756246819472906,POINT (-73.6017564 45.5216252),24661383,0.0653354688302255,95.0,5.0,0.74463722763436,1.0,0.43021651410211537
6574,7500 Rue Saint-Denis,1974.0,5100.0,0.07,163.9512,0.0,0.0,0.0036696106034873745,0.00011789799454630836,45.5399104,-73.6205985,23777.0,0.17647211650542252,0.3829787234042553,0.35106382978723405,0.9091161660118424,0.30593272149933404,POINT (-73.6205985 45.5399104),24660440,0.0818277579603341,98.0,5.0,0.8239226690276136,1.0,0.5265680580414739
3094,41 Av Saint-Just,1993.0,2364.0,0.64,2020.89582,0.0,0.0,0.04523236627493615,0.0023254716835815737,45.5178898,-73.6084266,26651.0,0.278928275962713,0.6379310344827587,0.3275862068965517,0.6878945844061137,0.49805928179379333,POINT (-73.6084266 45.5178898),24661396,-0.00831680644117556,45.0,3.0,0.39055944568172324,1.0,0.7015415829534909
3096,"999, Ave Mceachran",1986.0,8178.01,51.75,9112.17528,975.21,0.0,0.22577923177720235,0.05435522160845978,45.5198709,-73.61937929999999,26543.0,0.2166769472060557,0.5016556291390728,0.4942052980132451,0.720369789317572,0.4349116147068448,POINT (-73.61937929999999 45.5198709),24661352,0.0657456305790814,95.0,5.0,0.7466090494381206,0.926486969807979,0.507676113806843
3032,"7171, Rue Bombardier, Anjou",1977.0,4996.0,388.99,2588.544,7764.958,0.0,0.2317355452258217,0.6687973767090789,45.6075276,-73.58644269999999,23346.0,0.17386933006929595,0.3564432989690721,0.5672680412371134,0.6677847563842596,0.30121003644960065,POINT (-73.58644269999999 45.6075276),24660301,0.0179207299853259,67.0,4.0,0.5166944315672779,0.42970885714640505,0.5283271363532842
3035,"8750, Ave Chaumont, Anjou",1976.0,5070.0,243.87,3183.8399999999997,4854.994,0.0,0.17992787174521943,0.4131701832714618,45.6110733,-73.5465421,22808.0,0.1907721690553628,0.5316455696202531,0.6012658227848101,0.7105790248386424,0.4861867568331011,POINT (-73.5465421 45.6110733),24660163,0.0499904748354518,88.0,5.0,0.6708673214403591,0.540759242937022,0.45396052022750244
3207,1925 Rue Saint-Antoine,1937.0,4180.6,84.78999999999999,3433.37,1674.643,0.0,0.11432925570261976,0.1742146099454813,45.4393754,-73.6818764,35624.0,0.19037180559558142,0.8,0.23888888888888887,0.7519604771422521,0.5225602053688483,POINT (-73.6818764 45.4393754),24663466,0.0431986024370591,85.0,5.0,0.6382159049665759,0.7507041597501289,0.5173448404818541
3434,2200 Rue Saint-Antoine,1982.0,11612.91,275.34666666666664,3081.106773333333,5430.7373333333335,0.0,0.19051494218435436,0.203665429257555,45.4884908,-73.5766101,35352.0,0.26310324078426006,0.7553191489361701,0.5159574468085106,0.8196115544976295,0.722804937300728,POINT (-73.5766101 45.4884908),24663436,0.0649673599892998,95.0,5.0,0.7428675720272273,0.514845656034661,0.38166854707329667
3018,1800 Boul Saint-Joseph,1914.0,3251.6,76.05666666666667,2091.91972,1491.9513333333332,0.0,0.08021540079513578,0.2009179446012197,45.5351882,-73.5790921,28027.0,0.22435522870532582,0.9375,0.3984375,0.8295105948083,0.7720148053762591,POINT (-73.5790921 45.5351882),24661818,0.0634361491253385,94.0,5.0,0.7355063907953459,0.6834465371015701,0.4092758231875841
3068,55 Av Dupras,1930.0,7977.01,389.101140932,5805.14863,7652.253500000001,0.0,0.30120807625465124,0.41898736024251937,45.4283782,-73.6609713,25337.0,0.23715374305245765,0.9141221374045803,0.29961832061068705,0.45750544705669216,0.5705178095590823,POINT (-73.6609713 45.4283782),24660929,0.0777081370920105,98.0,5.0,0.8041179010938766,0.5676127233609358,0.3649647383080978
3069,7277 Rue Cordner,1990.0,11378.01,384.53251474599995,5372.30163,7563.646,0.0,0.28953670719827224,0.2902988469671516,45.4462304,-73.62677769999999,25174.0,0.22417109559752485,0.7167919799498746,0.3533834586466166,0.7887288817925842,0.561987094735401,POINT (-73.62677769999999 45.4462304),24660874,-0.0238940179180568,30.0,2.0,0.31567317138242895,0.5553915288249065,0.6195870581230345
3071,1080 Av Dollard,1981.0,2833.0,0.0,0.0,0.0,0.0,0.0,0.0,45.4243428,-73.6236274,25427.0,0.2372225454067407,0.5594660194174758,0.39441747572815533,0.5972927368841183,0.3990876808003251,POINT (-73.6236274 45.4243428),24660954,0.00833430730195298,60.0,3.0,0.470608424474064,,
1396,707 Av 75E,2014.0,6048.01,89.845,3921.696,1761.3,0.0,0.12719871755239567,0.12760273008823583,45.4219893,-73.62878789999999,25427.0,0.2372225454067407,0.5594660194174758,0.39441747572815533,0.5972927368841183,0.3990876808003251,POINT (-73.62878789999999 45.4219893),24660954,0.00833430730195298,60.0,3.0,0.470608424474064,0.7643319153938062,0.6304179303389266
3073,8681 Boul Champlain,1961.0,5016.0,211.24,7085.815750000001,4127.9025,0.0,0.250989193093554,0.36174054191332594,45.4185366,-73.6224938,25442.0,0.24828426671439308,0.9142857142857144,0.5714285714285714,0.6100833996502615,0.7800000528076475,POINT (-73.6224938 45.4185366),24660958,0.0558463211898624,91.0,5.0,0.6990188630048901,0.72008602724397,0.40654873189710494
3074,1411 Rue Lapierre,1991.0,4892.0,358.70815363199995,6185.77323,7049.155000000001,0.0,0.29622859100270316,0.6298445184475281,45.4369465,-73.6080235,25571.0,0.24003213568110807,0.8433333333333333,0.49,0.7228034804749297,0.7192358895514385,POINT (-73.6080235 45.4369465),24660993,0.0389388997284783,82.0,5.0,0.6177377041061936,0.5949951192798202,0.4170777547198212
3209,7644 Rue Édouard,1926.0,2469.0,24.9275,1972.2807199999995,481.273,0.0,0.05491626012580505,0.0867233785868813,45.4307065,-73.5941922,25521.0,0.3083891586285647,0.5555555555555556,0.3819444444444444,0.4347363286803899,0.3909789026943793,POINT (-73.5941922 45.4307065),24660981,0.0328984172330677,78.0,4.0,0.5886985381603018,0.850844004825543,0.5944585782013532
3191,11121 Av Salk,1959.0,3619.0,101.113565602,426.85804,1995.7635,0.0,0.054223925725587326,0.23999345395374405,45.6015863,-73.6231054,31691.0,0.20484835480998279,0.5514705882352942,0.34558823529411764,0.7806413532901735,0.40942549822011964,POINT (-73.6231054 45.6015863),24662744,-0.0144330289043199,39.0,2.0,0.36115616552915547,0.37357614371834125,0.6215069356731996
3905,4260 Rue De Charleroi,1977.0,4674.0,129.51,982.1196,2584.19,0.0,0.0798223344719576,0.23800887369592008,45.5934854,-73.6372675,31578.0,0.1973891456316333,0.8271028037383177,0.4439252336448598,0.6907676181267193,0.6319931258928203,POINT (-73.6372675 45.5934854),24662721,0.032502504729382,78.0,4.0,0.586795218532554,0.44900179214150204,0.47371669376379344
3088,3700 Rue Fleury E,1978.0,3822.0,148.247347714,4193.599639999999,2903.4505,0.0,0.15884855034440462,0.33317683883037325,45.5832191,-73.6373119,31460.0,0.20703537617464585,0.9111111111111112,0.46111111111111114,0.8846450678065194,0.7896268563915912,POINT (-73.6373119 45.5832191),24662682,0.050765150214015,89.0,5.0,0.6745915151433264,0.6889133743531699,0.42121397311488573
3089,11212 Av Garon,1963.0,8334.01,45.615,2733.76584,1792.308,0.0,0.10130409875274361,0.04701454266188795,45.5948599,-73.63787889999999,31574.0,0.17961799626561,0.4619565217391305,0.18478260869565216,0.6980338257341212,0.20241080120954003,POINT (-73.63787889999999 45.5948599),24662720,0.00531831410342622,57.0,3.0,0.45610926367850796,0.6988826389095792,0.6751717056491775
4109,4242 Place De L'Hôtel-De-Ville,,2966.0,1.2,2884.3704,0.0,0.0,0.06455894317470759,0.003475270815062865,45.594183,-73.63781929999999,31576.0,0.21259776119668433,0.5982142857142857,0.2767857142857143,0.7051496676962501,0.38788514086907067,POINT (-73.63781929999999 45.594183),24662720,0.00531831410342622,57.0,3.0,0.45610926367850796,1.0,0.6892657739376991
1112,"14 150, Boul Gouin O",,2429.0,17.46,1770.9804,334.666,0.0,0.047129282107328384,0.061744073530380264,45.5496116,-73.6764333,30886.0,0.277448507837305,0.3933333333333333,0.66,0.561880586651752,0.43016155343538165,POINT (-73.6764333 45.5496116),24662523,0.0168608755682038,66.0,4.0,0.5115992610538826,0.8791432425232397,0.6318740434916402
3100,"13 665, Boul De Pierrefonds",1932.0,2299.0,0.89,2140.8984,0.0,0.0,0.0479183041638558,0.003325290481859754,45.48243120000001,-73.8618003,33187.0,0.21716863417563168,0.855072463768116,0.7898550724637681,0.567425154018148,0.8022712347186424,POINT (-73.8618003 45.48243120000001),24663045,-0.00701685690400887,46.0,3.0,0.3968088554531694,1.0,0.6372980557312582
3101,"13 555, Boul De Pierrefonds",1983.0,4599.0,54.09,2277.0684,1063.81,0.0,0.07477665794213116,0.10102575987807887,45.48243120000001,-73.8618003,33187.0,0.21716863417563168,0.855072463768116,0.7898550724637681,0.567425154018148,0.8022712347186424,POINT (-73.8618003 45.48243120000001),24663045,-0.00701685690400887,46.0,3.0,0.3968088554531694,0.7578702312948378,0.5916366786873967
3161,5115 Rue Des Galets,1983.0,2857.0,329.25,0.0,6590.796,0.0,0.14751740083038228,0.9899063202774999,45.5846672,-73.5994791,23617.0,0.1882478874523272,0.9707792207792207,0.4959415584415584,0.6859122438626741,0.7599073512012747,POINT (-73.5994791 45.5846672),24660389,0.0179383497490969,67.0,4.0,0.5167791372583317,0.23959530906452053,0.39026147840716613
3144,8400 -8420 Lacordaire,1979.0,2947.0,0.75,1794.6684,0.0,0.0,0.04016886848271754,0.0021860479380465692,45.586654,-73.5975235,23617.0,0.1882478874523272,0.9707792207792207,0.4959415584415584,0.6859122438626741,0.7599073512012747,POINT (-73.5975235 45.586654),24660389,0.0179383497490969,67.0,4.0,0.5167791372583317,1.0,0.5864523423990219
1333,13001 Boul. Cavendish,1981.0,12394.01,444.52055677,6208.723320000001,8740.296999999999,0.0,0.33459397356054865,0.3080764926037842,45.5067578,-73.71113009999999,35284.0,0.1661940226581584,0.5214521452145214,0.5726072607260726,0.5881012438524147,0.3939149329364252,POINT (-73.71113009999999 45.5067578),24663424,0.0115681285170263,62.0,4.0,0.48615477709990257,0.5554114786988733,0.5632510617052697
3110,1375 Rue Grenet,1993.0,9105.01,308.20244325600004,4292.90057,6062.327499999999,0.0,0.231774178701968,0.2907596945734733,45.5143342,-73.6909283,24155.0,0.1904322091343579,0.7555555555555555,0.5611111111111111,0.6083059804186621,0.5988882246869526,POINT (-73.6909283 45.5143342),24660580,-0.0616607755444429,5.0,1.0,0.13411232044309512,0.5548314109717956,0.707200865991173
3112,2345 Boul. Thimens,1968.0,6707.01,129.18,5359.3,2523.45,0.0,0.17643434744387415,0.16544166044398695,45.5077234,-73.7012713,35147.0,0.1924200062566193,0.46737967914438505,0.5882352941176471,0.6466746892190303,0.40647707676475797,POINT (-73.7012713 45.5077234),24663419,0.0166732301925021,66.0,4.0,0.5106971700026925,0.7565769284398038,0.6012018383200831
3109,777 Boul. Marcel-Laurin,1956.0,6495.01,2.0025000000000004,6748.65993,0.0,0.0,0.1510507641204112,0.0026483248432317176,45.5070202,-73.68208039999999,24269.0,0.20429955058161187,0.7061855670103093,0.5025773195876289,0.5488981894408459,0.5200026760501913,POINT (-73.68208039999999 45.5070202),24660606,0.0338092585651681,79.0,4.0,0.5930773394585982,1.0,0.5879333633883894
850,2727 Boul. Thimens,2013.0,6500.01,1.408732998,4757.32255,0.0,0.0,0.10647998473746818,0.0018616293471821123,45.5040943,-73.7054605,35147.0,0.1924200062566193,0.46737967914438505,0.5882352941176471,0.6466746892190303,0.40647707676475797,POINT (-73.7054605 45.5040943),24663419,0.0166732301925021,66.0,4.0,0.5106971700026925,1.0,0.6552303785893534
849,2385 Boulevard Thimens,2017.0,13489.01,295.382400554,11579.57276,5772.767,0.0,0.3883858732269819,0.1880975300982203,45.5076977,-73.703289,35147.0,0.1924200062566193,0.46737967914438505,0.5882352941176471,0.6466746892190303,0.40647707676475797,POINT (-73.703289 45.5076977),24663419,0.0166732301925021,66.0,4.0,0.5106971700026925,0.7470289789624582,0.5821740912406808
3132,4555 Rue De Verdun,1958.0,6203.0,126.39,1825.9992,2514.84,0.0,0.09715811507542277,0.1750207282342883,45.45917679999999,-73.5733717,26103.0,0.21409615199970874,0.897887323943662,0.6197183098591549,0.7591658633394479,0.819048811550431,POINT (-73.5733717 45.45917679999999),24661178,0.0512028538653634,89.0,5.0,0.6766957425748745,0.5594639550453329,0.4113485464110481
864,10851 Av. Saint-Charles,1986.0,6209.01,1.6118475146666666,6223.0163600000005,0.0,0.0,0.13928563389796114,0.0022298731001224492,45.56173099999999,-73.6679061,31080.0,0.20154919474043087,0.3532608695652174,0.37907608695652173,0.49283829949668234,0.15892837899358014,POINT (-73.6679061 45.56173099999999),24662575,0.031268301298354,77.0,4.0,0.580861878228722,1.0,0.6671697220620667
3237,1177 Rue Dupuis,1990.0,7902.01,265.84006933333336,3803.70812,5210.733333333334,0.0,0.2017642441267166,0.28897576390003993,45.46762469999999,-73.5774984,26115.0,0.24337417154476773,0.5887096774193549,0.37419354838709673,0.6959548882190985,0.45502470158242236,POINT (-73.5774984 45.46762469999999),24661184,0.0234831789764056,71.0,4.0,0.5434354873422504,0.5604535133549089,0.5345398424136198
109,1350 Rue Carrières,1956.0,22985.02,824.0379185840001,9384.737826666666,16163.966666666667,0.0,0.5718396505429757,0.307950465103517,45.5363689,-73.5896822,28573.0,0.19877333466857594,0.9257425742574257,0.4678217821782178,0.7378284674077624,0.7401349550318684,POINT (-73.5896822 45.5363689),24661966,0.0258472831227561,73.0,4.0,0.5548007404774764,0.5189127464108678,0.4364252920430314
3101,13555 Boul. Pierrefonds,1983.0,4599.0,64.259151152,2499.799106666667,1251.4333333333334,0.0,0.08396133933737489,0.12001903446572666,45.49605409999999,-73.847543,33220.0,0.2223993561215064,0.8870967741935485,0.5846774193548387,0.577949076419762,0.72998144149915,POINT (-73.847543 45.49605409999999),24663050,0.0472194712757313,87.0,5.0,0.6575459299342141,0.746324496740679,0.4718808932089322
3100,13665 Boul. Pierrefonds,1932.0,2299.0,0.5335874613333332,2093.2046266666666,0.0,0.0,0.04685080617454969,0.0019936329285519024,45.4960248,-73.8496394,33220.0,0.2223993561215064,0.8870967741935485,0.5846774193548387,0.577949076419762,0.72998144149915,POINT (-73.8496394 45.4960248),24663050,0.0472194712757313,87.0,5.0,0.6575459299342141,1.0,0.5215674138003303
1112,14150 Boul. Gouin,1988.0,2429.0,16.569475413333333,1841.968786666667,316.7,0.0,0.04831604690279319,0.058594897381482,45.4944079,-73.8513828,33223.0,0.20337384558177737,0.9947368421052631,0.6815789473684211,0.7122443256924529,0.8980906873424012,POINT (-73.8513828 45.4944079),24663050,0.0472194712757313,87.0,5.0,0.6575459299342141,0.8884404281440823,0.46685664096470436
1141,1455 Rue Bercy,2016.0,6765.01,238.61298896533333,4631.317613333334,4670.733333333333,0.0,0.20820161601786244,0.30297318459404027,45.5329048,-73.5459295,34643.0,0.13645935808305418,0.986413043478261,0.44225543478260865,0.6702999303776279,0.6914978982966201,POINT (-73.5459295 45.5329048),24663330,0.0611490310927661,93.0,5.0,0.7245112426203164,0.6181866174310637,0.40383468159928465
5,330 Rue Saint-Paul E,1847.0,16219.02,298.26300128266666,8743.8,5823.733333333334,0.0,0.32605540420964146,0.15796225618599552,45.5086237,-73.5519434,26333.0,0.22493724154001843,0.5288461538461539,0.33653846153846156,0.8306026602067473,0.42472001335261456,POINT (-73.5519434 45.5086237),24661257,0.0406368293806006,83.0,5.0,0.6259003733912865,0.6960093349990173,0.5202058863540137
3084,4243 Rue De Charleroi,1916.0,2999.0,0.6881084373333334,2680.71488,0.0,0.0,0.060000657199059136,0.001970874503115757,45.5942341,-73.6375814,31576.0,0.21259776119668433,0.5982142857142857,0.2767857142857143,0.7051496676962501,0.38788514086907067,POINT (-73.6375814 45.5942341),24662720,0.00531831410342622,57.0,3.0,0.45610926367850796,1.0,0.6897204751092688
191,5375 Av. 1Re,1965.0,3760.0,76.77190419733334,1123.1247866666663,1504.6,0.0,0.05881461520378379,0.17538523201394807,45.5454217,-73.57624009999999,28717.0,0.14212374134433822,0.9267241379310345,0.6120689655172413,0.7046056050223903,0.7513145622965124,POINT (-73.57624009999999 45.5454217),24662025,0.114472026167475,100.0,5.0,0.9808575367918357,0.5646024637789988,0.27643370017029956
276,6750 Rue Marseille,1970.0,3374.0,106.436861128,3864.3199466666665,2074.433333333333,0.0,0.1329231625494868,0.27097269714309025,45.5827415,-73.5379327,34611.0,0.2065846815288617,0.6879562043795621,0.3266423357664233,0.5962354786434823,0.4354924856459491,POINT (-73.5379327 45.5827415),24663319,0.0761394735043812,97.0,5.0,0.7965766687057263,0.734387208336833,0.44447906029152867
142,6767 Ch. Côte-Des-Neiges,1976.0,7299.01,1.17110296,4575.927,0.0,0.0,0.1024199288567828,0.001378191838922611,45.50333450000001,-73.6369824,26480.0,0.2276068240715423,0.8518518518518519,0.3287037037037037,0.6786087003130394,0.614275387132487,POINT (-73.6369824 45.50333450000001),24661321,-0.00204438841225613,50.0,3.0,0.4207136242861946,1.0,0.6590032513782274
2552,6960 Rue Darlington,1997.0,2100.0,82.385148512,1433.1751866666666,1613.5,0.0,0.06819170320420878,0.3369831518967296,45.5104228,-73.6324779,26467.0,0.1880185519427265,0.9524793388429753,0.428374655647383,0.6959968551217519,0.7145737229061316,POINT (-73.6324779 45.5104228),24661313,0.0719209656170374,97.0,5.0,0.7762965088546376,0.5972944624376753,0.37814305622453576
3032,7171 Rue Bombardier,1977.0,5995.01,240.197191976,2693.921093333333,4711.8,0.0,0.16575732687876704,0.3441569688102213,45.6075276,-73.58644269999999,23346.0,0.17386933006929595,0.3564432989690721,0.5672680412371134,0.6677847563842596,0.30121003644960065,POINT (-73.58644269999999 45.6075276),24660301,0.0179207299853259,67.0,4.0,0.5166944315672779,0.5162017610985763,0.5705974689145532
1867,7501 Av. Rondeau,2023.0,4200.0,0.7033333333333335,2785.1664266666667,0.0,0.0,0.06233852665776793,0.0014384357361821901,45.6161135,-73.5505948,32412.0,0.17455312020360694,0.37331081081081086,0.5253378378378378,0.5380617240445559,0.24304331752045616,POINT (-73.5505948 45.6161135),24662907,0.00910394596899356,60.0,3.0,0.4743084045646521,1.0,0.7094538620340364
8091,8200 Av. Chénier,1968.0,3885.0,114.07333333333334,4557.919573333334,2221.1666666666665,0.0,0.15173177596906492,0.25221543621689224,45.6013678,-73.54107549999999,22835.0,0.14965699560099574,0.7368421052631579,0.5131578947368421,0.5077235924678176,0.4839130978693973,POINT (-73.54107549999999 45.6013678),24660169,-0.043950832896079,14.0,1.0,0.2192515396774531,0.7508535084393828,0.7259235959393546
3035,8750 Av. Chaumont,1976.0,5531.01,230.69000000000003,3756.17976,4519.833333333333,0.0,0.1852364935535473,0.35826375974635505,45.6110733,-73.5465421,22808.0,0.1907721690553628,0.5316455696202531,0.6012658227848101,0.7105790248386424,0.4861867568331011,POINT (-73.5465421 45.6110733),24660163,0.0499904748354518,88.0,5.0,0.6708673214403591,0.5847151967797422,0.4642737484326689
1074,8931 Av. Papineau,2009.0,7999.01,68.18666666666667,2037.7056533333337,1331.2,0.0,0.07540397330193717,0.07322203158260047,45.5610531,-73.63504580000001,31288.0,0.16239072592079204,0.40888888888888886,0.7052777777777778,0.7034153451665239,0.4164414637882663,POINT (-73.63504580000001 45.5610531),24662629,0.012567013974549,63.0,4.0,0.490956843918899,0.6995312933231752,0.6150160289150333
44,999 Rue Louvain E,1966.0,12776.01,167.55666666666664,2294.364146666667,3284.433333333333,0.0,0.1248665114211829,0.11265358652841997,45.5565664,-73.6479708,31229.0,0.1743254182970098,0.5345982142857143,0.5100446428571429,0.579696302059713,0.3758973580622086,POINT (-73.6479708 45.5565664),24662615,0.0327018658454136,78.0,4.0,0.5877536321255075,0.552323144425827,0.5459781766424584
3956,1248 Av. Bernard,1929.0,1792.0,0.71,3539.54304,0.0,0.0,0.07922323637206642,0.003403289526882342,45.5198962,-73.6085499,26648.0,0.2631652401427146,0.6666666666666666,0.3446969696969697,0.588558661149663,0.4764524801054083,POINT (-73.6085499 45.5198962),24661395,-0.0129451558602706,40.0,2.0,0.368309003446556,1.0,0.7143580128132192
2452,350 Pl. Royale,1992.0,7493.01,173.61,8953.19892,3380.3,0.0,0.27605249863942494,0.1990201177006324,45.50329290000001,-73.554262,26327.0,0.22231213082717557,0.9722222222222223,0.25,0.9804242974273585,0.7788548393454021,POINT (-73.554262 45.50329290000001),24661256,0.0438644906141436,85.0,5.0,0.6414171123685437,0.7915923134674256,0.4566288767412572
248,5035 Rue Rouen,1965.0,3847.0,300.26,1627.776,5900.8,0.0,0.16850710649730263,0.6704306301630958,45.561483,-73.53853,28811.0,0.17671296496976055,0.6470588235294118,0.4522058823529411,0.7885920091201334,0.516097680191834,POINT (-73.53853 45.561483),24662058,0.0346179355216,80.0,4.0,0.5969649931935914,0.40400468823425884,0.4459783403504464
3134,5955 Rue Bannantyne,1966.0,1995.0,40.46,766.8,792.9,0.0,0.034909727152099265,0.1742053675807552,45.4485555,-73.57790419999999,26151.0,0.21403793169506294,0.5038759689922481,0.6007751937984496,0.7979455803977602,0.5192602380378419,POINT (-73.57790419999999 45.4485555),24661196,0.00824933260977894,60.0,3.0,0.4701999150231851,0.6134353533097765,0.5873796657723416
3031,7650 Boul. Châteauneuf,1976.0,5844.01,130.8,5523.55236,2551.5,0.0,0.18073852319453437,0.1922539836319613,45.6029496,-73.5585906,22905.0,0.22140958216285794,0.46706586826347307,0.41017964071856283,0.591608137206115,0.3192230456717914,POINT (-73.5585906 45.6029496),24660180,-0.0211131369949519,33.0,2.0,0.3290420475712372,0.7597325091620983,0.7076198054423507
626,7959 Av. 16E,1961.0,2590.0,191.44,945.41076,3762.6,0.0,0.10537627175786851,0.6349089883470538,45.5666228,-73.6044082,23545.0,0.19471958508303575,0.9090909090909092,0.46590909090909094,0.9710215994664393,0.8128458701608489,POINT (-73.6044082 45.5666228),24660364,0.0443542259669789,85.0,5.0,0.6437714782973183,0.3922913867525156,0.3688674003241792
8324,10125 Rue Parthenais,1957.0,3243.0,111.64,271.49636,2194.8500000000004,0.0,0.05520258927368931,0.2957000738595839,45.5717089,-73.64758770000002,31334.0,0.20905399333376995,0.6224489795918368,0.30612244897959184,0.6311186500402528,0.3899305522561467,POINT (-73.64758770000002 45.5717089),24662647,0.0238115951948244,72.0,4.0,0.5450143236476668,0.32330095116902524,0.5216841706652956
263,1055 Rue Hibernia,1960.0,5227.01,203.885,4041.67976,3988.65,0.0,0.17973752700069423,0.33505067593184934,45.4799512,-73.5632198,25996.0,0.1953919831594257,0.69921875,0.86328125,0.7558593471813866,0.7727876604393736,POINT (-73.5632198 45.4799512),24661127,0.0272351383030311,74.0,4.0,0.5614727500262984,0.6223083906706464,0.46944323627963225
482,11301 Boul. Acadie,1971.0,3443.0,188.455,3329.6196600000003,3688.85,0.0,0.15708973575423923,0.47016380842016936,45.5379371,-73.6884515,30967.0,0.18194798653409236,0.5340557275541795,0.6037151702786377,0.592463847460553,0.4356365444165824,POINT (-73.6884515 45.5379371),24662545,0.00440614678655387,56.0,3.0,0.45172408780800416,0.6003375407969858,0.5800172625191486
3070,1300 Av. Dollard,1976.0,3931.0,52.86,2930.9784,1023.7,0.0,0.08851493487100115,0.11550550117295098,45.4259613,-73.62636189999999,25264.0,0.22319531840268317,0.6929347826086957,0.6394927536231884,0.7369820850069673,0.6702484411002397,POINT (-73.62636189999999 45.4259613),24660908,0.0172091671388499,66.0,4.0,0.5132736466224581,0.8031631896766498,0.564486434216924
763,1515 Boul. Tricentenaire,1972.0,8701.01,297.30999999999995,8005.27678,5804.15,0.0,0.30908720973052045,0.2935069591570741,45.651824,-73.499814,22266.0,0.11227216082230872,0.6032608695652174,0.875,0.6286658723471303,0.5802792911339337,POINT (-73.499814 45.651824),24660036,0.0759418461618887,97.0,5.0,0.7956265900988524,0.6803992694841485,0.39299617447983975
8662,2550 Rue Ontario E,1992.0,7543.01,98.825,3376.8786200000004,1925.15,0.0,0.11867177821172113,0.1125383888741236,45.5328553,-73.5515175,34648.0,0.18207102218836552,1.0,0.42391304347826086,0.9156758715533799,0.8286993252116882,POINT (-73.5515175 45.5328553),24663331,0.0371975174848158,81.0,5.0,0.6093661397506367,0.7238994362964342,0.47082121799537074
3686,2805 Boul. Thimens,1986.0,3523.0,1.1,3903.89598,0.0,0.0,0.08737830575878514,0.002681998902739589,45.50328409999999,-73.7067148,35147.0,0.1924200062566193,0.46737967914438505,0.5882352941176471,0.6466746892190303,0.40647707676475797,POINT (-73.7067148 45.50328409999999),24663419,0.0166732301925021,66.0,4.0,0.5106971700026925,1.0,0.6566014767960877
3206,2901 Boul. Saint-Joseph,1862.0,1765.2,44.77,894.9920999999999,875.8,0.0,0.03963446114899845,0.2178571056357429,45.433316,-73.6899196,29312.0,0.3413210693258319,0.4339080459770115,0.12547892720306514,0.6575877331102025,0.28046694180591814,POINT (-73.6899196 45.433316),24662193,0.071173262837183,96.0,5.0,0.7727019838942735,0.6239183423501309,0.48183150353534365
481,3175 Rue Rouen,1971.0,3405.0,115.385,4017.15238,2247.5,0.0,0.14021754522571603,0.2910789448865171,45.5417375,-73.5514602,27928.0,0.1686969840859511,0.7682291666666667,0.33854166666666663,0.786337576198874,0.543122283136613,POINT (-73.5514602 45.5417375),24661782,0.0553068782648226,91.0,5.0,0.6964255316558681,0.7271980248523398,0.46989524451417686
2359,3535 Av. 36E,1972.0,3531.0,82.36500000000001,1676.93108,1611.0500000000002,0.0,0.07359269243063711,0.20036577430964095,45.66114,-73.5098983,32575.0,0.17936337604326105,0.17755102040816328,0.3581632653061224,0.5862553885926226,0.02825467835773221,POINT (-73.5098983 45.66114),24662933,-0.0249260542545529,29.0,2.0,0.31071173420245696,0.6274157461600707,0.7625586741457148
709,5290 Ch. Côte-Des-Neiges,1982.0,3477.0,0.69,2425.7724399999997,0.0,0.0,0.05429445022342892,0.0017046018439883202,45.4960824,-73.6221267,24524.0,0.16202246794637912,0.8762886597938144,0.28350515463917525,0.8107328788984808,0.601776228810004,POINT (-73.6221267 45.4960824),24660691,0.0259053466240853,73.0,4.0,0.5550798763994462,1.0,0.5979048871332198
152,5311 Ch. Côte-Saint-Antoine,1931.0,5174.01,235.34,1127.12966,4623.6,0.0,0.12871475498883417,0.3907032638301645,45.476117,-73.61368600000002,24451.0,0.17437488279060584,0.6907894736842105,0.1381578947368421,0.8360049843246736,0.40413236362981475,POINT (-73.61368600000002 45.476117),24660646,0.0666144144860661,95.0,5.0,0.7507856628237592,0.38863286280626796,0.41311927387167274
121,5354 Av. Gatineau,1908.0,2912.0,60.849999999999994,2129.69834,1185.05,0.0,0.07419180619816246,0.1794931031079699,45.4970813,-73.62224590000001,24537.0,0.2162480578256835,0.9871794871794872,0.3910256410256411,0.7553355742440124,0.7706156808239725,POINT (-73.62224590000001 45.4970813),24660699,0.118453879990116,100.0,5.0,1.0,0.7281490217163544,0.28607284889469875
1033,6400 Av. Monkland,2015.0,5881.01,0.955,3302.6578,0.0,0.0,0.07392119168734529,0.0013948580320085615,45.466196,-73.63091639999999,24697.0,0.18525528423748652,0.8807339449541285,0.5,0.7253695053316137,0.7048733110103363,POINT (-73.63091639999999 45.466196),24660755,0.0652530576109432,95.0,5.0,0.7442410418868872,1.0,0.48125611312553757
57,75 Rue Ontario,1963.0,5028.0,141.065,1027.9406,2769.3999999999996,0.0,0.08499334759863365,0.2409919623350446,45.5121276,-73.5667587,26389.0,0.27989529151491677,0.9785714285714286,0.30714285714285716,0.7801577598238982,0.7877494114016727,POINT (-73.5667587 45.5121276),24661262,0.0372231133786294,81.0,5.0,0.6094891900878492,0.4454369589399706,0.4300721682717106
2619,7675 Rue Colbert,2010.0,8755.01,0.305,1096.3405,0.0,0.0,0.02453865981970641,0.0002992414474141624,45.5741315,-73.5941441,23185.0,0.16507757784894514,0.9243630573248407,0.6759554140127388,0.7322731532651245,0.8138880494018049,POINT (-73.5941441 45.5741315),24660260,0.021840227421103,70.0,4.0,0.5355371211286672,1.0,0.5675909869602714
1062,7800 Boul. Métropolitain E,1989.0,5600.01,0.595,2067.41118,0.0,0.0,0.04627348862281182,0.0009126551673261032,45.6064418,-73.5637734,22956.0,0.2057700492065943,0.36458333333333337,0.4666666666666667,0.6539112224431505,0.27903708640909664,POINT (-73.5637734 45.6064418),24660199,-0.0246634773759574,30.0,2.0,0.3119740528263221,1.0,0.7846665955207592
455,8000 Rue Normanville,1958.0,3415.0,80.75,1265.2978,1581.4,0.0,0.06371574243923912,0.2031095653797671,45.5478878,-73.62148680000001,32851.0,0.1737937576109288,0.850609756097561,0.19664634146341464,0.626515618663736,0.476417200480417,POINT (-73.62148680000001 45.5478878),24662981,0.0197557843433119,68.0,4.0,0.5255163175775053,0.5775793348189726,0.5585834032515844
3144,8400 Boul. Lacordaire,1979.0,16554.02,581.895,17054.78656,11352.45,0.0,0.6358202714975566,0.301939341653458,45.58631949999999,-73.59685929999999,23617.0,0.1882478874523272,0.9707792207792207,0.4959415584415584,0.6859122438626741,0.7599073512012747,POINT (-73.59685929999999 45.58631949999999),24660389,0.0179383497490969,67.0,4.0,0.5167791372583317,0.6961177052411436,0.47371464593042467
110,1600 Rue Drucourt,1960.0,7527.01,245.09,5846.4,4802.2,0.0,0.23834052737824216,0.2796930357000208,45.5410721,-73.5956175,28929.0,0.14916927850297898,0.6759259259259259,0.4629629629629629,0.6989978100270599,0.48444611159393525,POINT (-73.5956175 45.5410721),24662101,0.066782782160929,95.0,5.0,0.7515950777759561,0.6570802352600005,0.4370227568513652
4201,2349 Rue Rouen,1906.0,3025.0,95.57,430.3,1878.8,0.0,0.051683048641990394,0.27137807710900774,45.5325826,-73.5583271,27968.0,0.20510831563466547,0.7944444444444445,0.09999999999999998,0.768190660475697,0.4661808768246153,POINT (-73.5583271 45.5325826),24661793,0.00448879378828299,56.0,3.0,0.4521214070618826,0.38129646471370726,0.5636680063798669
2406,3444 Boul. Saint-Joseph E,1975.0,6523.01,0.41,2423.8,0.0,0.0,0.054250302411526716,0.0005399012913984072,45.5505207,-73.5650526,28848.0,0.17715707528536895,0.8688725490196079,0.6127450980392157,0.6663752015719735,0.723725854226161,POINT (-73.5650526 45.5505207),24662073,0.0383202546232085,82.0,5.0,0.6147636142239379,1.0,0.5437637567650795
3236,4501 Rue Bannantyne,1984.0,2788.0,22.08,1560.4,429.2,0.0,0.044531892762593256,0.06802755364762594,45.4594886,-73.57653069999999,26127.0,0.27303548849384784,0.5185185185185185,0.45833333333333337,0.6870314067855035,0.4674438342477567,POINT (-73.57653069999999 45.4594886),24661189,-0.000140019388201296,52.0,3.0,0.42986873534789555,0.8359641669936129,0.6585295320447763
2464,4880 Av. Horne,1997.0,6302.01,327.51,4118.1,6429.4,0.0,0.2360776733581888,0.44639984066011873,45.5762847,-73.5711889,27633.0,0.15754289506856534,0.7318840579710145,0.5760869565217391,0.642259630038029,0.5717346428041948,POINT (-73.5711889 45.5762847),24661691,0.0383878298931008,82.0,5.0,0.6150884772589242,0.536482965641093,0.45739546410448984
747,75 Rue Square-Sir-George-Étienne-Cartier,1958.0,5591.01,105.01,675.3,2063.7,0.0,0.06130521425248439,0.16133141514495003,45.4732115,-73.5838668,25772.0,0.2022703292055834,0.53,0.97,0.7354643377148007,0.6951963840871503,POINT (-73.5838668 45.4732115),24661054,0.0254764705803975,73.0,4.0,0.5530180870287575,0.42707296068508616,0.4818148765661465
